{
  "hospitalList": [
    {
      "id": 101,
      "name": "浙江大学医学院附属第一医院",
      "address": "浙江省杭州市上城区庆春路79号",
      "phone": "0571-87236114",
      "rank": "三级甲等",
      "longitude": "120.1845783573",
      "latitude": "30.2633618768"
    },
    {
      "id": 102,
      "name": "浙江省中医院",
      "address": "浙江省杭州市邮电路54号",
      "phone": "0571-87068001",
      "rank": "三级甲等",
      "longitude": "120.1724036626",
      "latitude": "30.2574971352"
    },
    {
      "id": 103,
      "name": "浙江大学医学院附属邵逸夫医院",
      "address": "浙江省杭州市庆春东路3号",
      "phone": "0571-86090073",
      "rank": "三级甲等",
      "longitude": "120.2082900483",
      "latitude": "30.2632656672"
    },
    {
      "id": 104,
      "name": "浙江省人民医院",
      "address": "浙江省杭州市上塘路158号",
      "phone": "0571-87666666",
      "rank": "三级甲等",
      "longitude": "120.1744320813",
      "latitude": "30.2900878214"
    },
    {
      "id": 105,
      "name": "杭州市第一人民医院",
      "address": "浙江省杭州市浣纱路261号",
      "phone": "0571-56005600",
      "rank": "三级甲等",
      "longitude": "120.1737336626",
      "latitude": "30.2601571352"
    },
    {
      "id": 106,
      "name": "杭州市红十字会医院",
      "address": "浙江省杭州市环城东路208号",
      "phone": "0571-56109588",
      "rank": "三级甲等",
      "longitude": "120.1943280970",
      "latitude": "30.2721106802"
    }
  ]
}